DATE,SERIAL,WIND SPEED (m/s),WIND GUST (m/s),WIND COUNT,PULSE TIME,PULSE MIN TIME,INPUT VOLTAGE ADC,INPUT VOLTAGE,VERTICAL INPUT ADC,VERTICAL WIND SPEED (m/s),WIND VANE ADC,WIND VANE DIRECTION (degrees),SEQUENCE NUMBER,LIVE AGE (milliseconds),GNSS AGE (milliseconds),GNSS NMEA,HDT VALID,HDT HEADING (DEGREES),HDT TRUE,GGA VALID,GGA TIME,GGA LATITUDE,GGA LONGITUDE,GGA QUALITY,GGA N SV,GGA HDOP (meters),GGA HEIGHT (meters),GGA DGPS AGE,GGA REF STATION,RMC VALID,RMC DATE,RMC TIME,RMC STATUS,RMC LATITUDE,RMC LONGITUDE,RMC SPEED OVER GROUND (knots),RMC TRACK ANGLE TRUE (degrees),RMC MAGNETIC VARIATION (degrees)
2021-02-19 16:14:21,R1036,76.8,77.6,100,100,99,819,14.6,1022,0.0,1,0,7074,960,0,"$GPRMC,221420.00,A,4404.43410823,N,09143.58462034,W,0.05,257.23,190221,1.0,W,D,S*4E$GPHDT,53.280,T*09",1,53.3,1,,,,,,,,,,,1,190221,221420.000,ACTIVE,44.07390180383333,-91.726410339,0.1,257.2,1.0
2021-02-19 16:14:22,R1036,76.8,76.8,100,100,100,818,14.6,1022,0.0,1,0,7075,960,0,"$GPRMC,221421.00,A,4404.43411001,N,09143.58462312,W,0.03,24.38,190221,1.0,W,D,S*7B$GPHDT,53.242,T*07",1,53.2,1,,,,,,,,,,,1,190221,221421.000,ACTIVE,44.0739018335,-91.72641038533334,0.0,24.4,1.0
2021-02-19 16:14:23,R1036,76.8,76.8,100,100,100,819,14.6,1021,0.0,1,0,7076,960,0,"$GPRMC,221422.00,A,4404.43411001,N,09143.58462388,W,0.06,151.94,190221,1.0,W,D,S*4B$GPHDT,53.277,T*01",1,53.3,1,,,,,,,,,,,1,190221,221422.000,ACTIVE,44.0739018335,-91.726410398,0.1,151.9,1.0
2021-02-19 16:14:24,R1036,76.8,77.6,100,100,99,819,14.6,1022,0.0,1,0,7077,960,0,"$GPRMC,221423.00,A,4404.43411036,N,09143.58462506,W,0.03,253.34,190221,1.0,W,D,S*40$GPHDT,53.226,T*05",1,53.2,1,,,,,,,,,,,1,190221,221423.000,ACTIVE,44.07390183933333,-91.72641041766667,0.0,253.3,1.0
2021-02-19 16:14:25,R1036,76.8,76.8,100,100,100,819,14.6,1022,0.0,1,0,7078,960,0,"$GPRMC,221424.00,A,4404.43411104,N,09143.58462512,W,0.05,342.51,190221,1.0,W,D,S*46$GPHDT,53.234,T*06",1,53.2,1,,,,,,,,,,,1,190221,221424.000,ACTIVE,44.073901850666665,-91.72641041866666,0.1,342.5,1.0
2021-02-19 16:14:26,R1036,76.8,76.8,100,100,100,819,14.6,1022,0.0,1,0,7079,970,0,"$GPRMC,221425.00,A,4404.43411310,N,09143.58462635,W,0.01,14.48,190221,1.0,W,D,S*7A$GPHDT,53.189,T*03",1,53.2,1,,,,,,,,,,,1,190221,221425.000,ACTIVE,44.073901885,-91.72641043916667,0.0,14.5,1.0
2021-02-19 16:14:27,R1036,76.8,76.8,100,100,100,819,14.6,1021,0.0,1,0,7080,970,0,"$GPRMC,221426.00,A,4404.43411373,N,09143.58462697,W,0.05,29.72,190221,1.0,W,D,S*77$GPHDT,53.194,T*0F",1,53.2,1,,,,,,,,,,,1,190221,221426.000,ACTIVE,44.0739018955,-91.7264104495,0.1,29.7,1.0
2021-02-19 16:14:28,R1036,76.8,77.6,100,100,99,819,14.6,1022,0.0,1,0,7081,970,0,"$GPRMC,221427.00,A,4404.43411500,N,09143.58462958,W,0.02,24.30,190221,1.0,W,D,S*74$GPHDT,53.214,T*04",1,53.2,1,,,,,,,,,,,1,190221,221427.000,ACTIVE,44.073901916666664,-91.726410493,0.0,24.3,1.0
2021-02-19 16:14:29,R1036,76.8,76.8,100,100,100,819,14.6,1022,0.0,1,0,7082,970,0,"$GPRMC,221428.00,A,4404.43411632,N,09143.58463137,W,0.09,329.71,190221,1.0,W,D,S*49$GPHDT,53.237,T*05",1,53.2,1,,,,,,,,,,,1,190221,221428.000,ACTIVE,44.073901938666666,-91.72641052283333,0.1,329.7,1.0
2021-02-19 16:14:30,R1036,76.8,76.8,100,100,100,819,14.6,1021,0.0,1,0,7083,970,0,"$GPRMC,221429.00,A,4404.43411880,N,09143.58463362,W,0.07,306.45,190221,1.0,W,D,S*49$GPHDT,53.234,T*06",1,53.2,1,,,,,,,,,,,1,190221,221429.000,ACTIVE,44.07390198,-91.72641056033333,0.1,306.4,1.0
2021-02-19 16:14:31,R1036,76.8,77.6,100,100,99,819,14.6,1021,0.0,1,0,7084,960,0,"$GPRMC,221430.00,A,4404.43412004,N,09143.58463536,W,0.01,269.78,190221,1.0,W,D,S*41$GPHDT,53.343,T*07",1,53.3,1,,,,,,,,,,,1,190221,221430.000,ACTIVE,44.07390200066666,-91.72641058933333,0.0,269.8,1.0
2021-02-19 16:14:32,R1036,76.8,76.8,100,100,100,819,14.6,1022,0.0,1,0,7085,970,0,"$GPRMC,221431.00,A,4404.43412035,N,09143.58463743,W,0.04,138.69,190221,1.0,W,D,S*40$GPHDT,53.313,T*02",1,53.3,1,,,,,,,,,,,1,190221,221431.000,ACTIVE,44.07390200583333,-91.72641062383333,0.0,138.7,1.0
2021-02-19 16:14:33,R1036,76.8,76.8,100,100,100,819,14.6,1022,0.0,1,0,7086,960,0,"$GPRMC,221432.00,A,4404.43412076,N,09143.58463820,W,0.06,333.56,190221,1.0,W,D,S*49$GPHDT,53.327,T*05",1,53.3,1,,,,,,,,,,,1,190221,221432.000,ACTIVE,44.073902012666665,-91.72641063666667,0.1,333.6,1.0
2021-02-19 16:14:34,R1036,76.8,76.8,100,100,100,819,14.6,1022,0.0,1,0,7087,970,0,"$GPRMC,221433.00,A,4404.43412166,N,09143.58463965,W,0.03,225.88,190221,1.0,W,D,S*48$GPHDT,53.360,T*06",1,53.4,1,,,,,,,,,,,1,190221,221433.000,ACTIVE,44.07390202766667,-91.72641066083334,0.0,225.9,1.0
2021-02-19 16:14:35,R1036,76.8,77.6,100,100,99,819,14.6,1022,0.0,1,0,7088,970,0,"$GPRMC,221434.00,A,4404.43412184,N,09143.58463978,W,0.04,59.26,190221,1.0,W,D,S*75$GPHDT,53.330,T*03",1,53.3,1,,,,,,,,,,,1,190221,221434.000,ACTIVE,44.073902030666666,-91.726410663,0.0,59.3,1.0
2021-02-19 16:14:36,R1036,76.8,76.8,100,100,100,819,14.6,1022,0.0,1,0,7089,970,0,"$GPRMC,221435.00,A,4404.43412195,N,09143.58463900,W,0.06,333.50,190221,1.0,W,D,S*47$GPHDT,53.371,T*06",1,53.4,1,,,,,,,,,,,1,190221,221435.000,ACTIVE,44.0739020325,-91.72641065,0.1,333.5,1.0
2021-02-19 16:14:37,R1036,76.8,76.8,100,100,100,819,14.6,1022,0.0,1,0,7090,970,0,"$GPRMC,221436.00,A,4404.43412155,N,09143.58463805,W,0.00,47.37,190221,1.0,W,D,S*7B$GPHDT,53.427,T*02",1,53.4,1,,,,,,,,,,,1,190221,221436.000,ACTIVE,44.073902025833334,-91.72641063416667,0.0,47.4,1.0
2021-02-19 16:14:38,R1036,76.8,76.8,100,100,100,819,14.6,1022,0.0,1,0,7091,970,0,"$GPRMC,221437.00,A,4404.43412220,N,09143.58463818,W,0.03,208.35,190221,1.0,W,D,S*4F$GPHDT,53.427,T*02",1,53.4,1,,,,,,,,,,,1,190221,221437.000,ACTIVE,44.07390203666667,-91.72641063633333,0.0,208.3,1.0
2021-02-19 16:14:39,R1036,76.8,77.6,100,100,99,819,14.6,1022,0.0,1,0,7092,970,0,"$GPRMC,221438.00,A,4404.43412301,N,09143.58464069,W,0.08,170.32,190221,1.0,W,D,S*4B$GPHDT,53.336,T*05",1,53.3,1,,,,,,,,,,,1,190221,221438.000,ACTIVE,44.073902050166666,-91.72641067816667,0.1,170.3,1.0
2021-02-19 16:14:40,R1036,76.8,76.8,100,100,100,819,14.6,1021,0.0,1,0,7093,970,0,"$GPRMC,221439.00,A,4404.43412332,N,09143.58464036,W,0.07,87.91,190221,1.0,W,D,S*7F$GPHDT,53.394,T*0D",1,53.4,1,,,,,,,,,,,1,190221,221439.000,ACTIVE,44.073902055333335,-91.72641067266666,0.1,87.9,1.0
2021-02-19 16:14:41,R1036,76.8,76.8,100,100,100,819,14.6,1022,0.0,1,0,7094,970,0,"$GPRMC,221440.00,A,4404.43412436,N,09143.58464167,W,0.04,144.65,190221,1.0,W,D,S*41$GPHDT,53.400,T*07",1,53.4,1,,,,,,,,,,,1,190221,221440.000,ACTIVE,44.07390207266667,-91.7264106945,0.0,144.7,1.0
2021-02-19 16:14:42,R1036,76.8,77.6,100,100,99,819,14.6,1022,0.0,1,0,7095,970,0,"$GPRMC,221441.00,A,4404.43412494,N,09143.58464319,W,0.04,155.77,190221,1.0,W,D,S*40$GPHDT,53.369,T*0F",1,53.4,1,,,,,,,,,,,1,190221,221441.000,ACTIVE,44.07390208233333,-91.72641071983334,0.0,155.8,1.0
2021-02-19 16:14:43,R1036,76.8,76.8,100,100,100,819,14.6,1022,0.0,1,0,7096,970,0,"$GPRMC,221442.00,A,4404.43412589,N,09143.58464417,W,0.09,302.54,190221,1.0,W,D,S*4B$GPHDT,53.352,T*07",1,53.4,1,,,,,,,,,,,1,190221,221442.000,ACTIVE,44.07390209816667,-91.72641073616667,0.1,302.5,1.0
2021-02-19 16:14:44,R1036,76.8,76.8,100,100,100,819,14.6,1022,0.0,1,0,7097,970,0,"$GPRMC,221443.00,A,4404.43412622,N,09143.58464576,W,0.02,268.05,190221,1.0,W,D,S*4C$GPHDT,53.316,T*07",1,53.3,1,,,,,,,,,,,1,190221,221443.000,ACTIVE,44.07390210366667,-91.72641076266666,0.0,268.1,1.0
2021-02-19 16:14:45,R1036,76.8,76.8,100,100,100,819,14.6,1022,0.0,1,0,7098,970,0,"$GPRMC,221444.00,A,4404.43412673,N,09143.58464757,W,0.03,277.35,190221,1.0,W,D,S*42$GPHDT,53.271,T*07",1,53.3,1,,,,,,,,,,,1,190221,221444.000,ACTIVE,44.073902112166664,-91.72641079283333,0.0,277.4,1.0
2021-02-19 16:14:46,R1036,76.8,77.6,100,100,99,819,14.6,1022,0.0,1,0,7099,970,0,"$GPRMC,221445.00,A,4404.43412726,N,09143.58464858,W,0.11,109.89,190221,1.0,W,D,S*4C$GPHDT,53.251,T*05",1,53.3,1,,,,,,,,,,,1,190221,221445.000,ACTIVE,44.073902121,-91.72641080966666,0.1,109.9,1.0
2021-02-19 16:14:47,R1036,76.8,76.8,100,100,100,819,14.6,1022,0.0,1,0,7100,970,0,"$GPRMC,221446.00,A,4404.43412737,N,09143.58465033,W,0.05,296.69,190221,1.0,W,D,S*45$GPHDT,53.246,T*03",1,53.2,1,,,,,,,,,,,1,190221,221446.000,ACTIVE,44.07390212283333,-91.72641083883333,0.1,296.7,1.0
2021-02-19 16:14:48,R1036,76.8,76.8,100,100,100,819,14.6,1021,0.0,1,0,7101,970,0,"$GPRMC,221447.00,A,4404.43412795,N,09143.58465162,W,0.06,196.25,190221,1.0,W,D,S*41$GPHDT,53.238,T*0A",1,53.2,1,,,,,,,,,,,1,190221,221447.000,ACTIVE,44.0739021325,-91.72641086033333,0.1,196.2,1.0
2021-02-19 16:14:49,R1036,76.8,76.8,100,100,100,819,14.6,1021,0.0,1,0,7102,970,0,"$GPRMC,221448.00,A,4404.43412810,N,09143.58465235,W,0.10,134.75,190221,1.0,W,D,S*47$GPHDT,53.240,T*05",1,53.2,1,,,,,,,,,,,1,190221,221448.000,ACTIVE,44.073902135,-91.7264108725,0.1,134.8,1.0
2021-02-19 16:14:50,R1036,76.8,77.6,100,100,99,819,14.6,1022,0.0,1,0,7103,970,0,"$GPRMC,221449.00,A,4404.43412802,N,09143.58465232,W,0.04,110.57,190221,1.0,W,D,S*41$GPHDT,53.311,T*00",1,53.3,1,,,,,,,,,,,1,190221,221449.000,ACTIVE,44.073902133666664,-91.726410872,0.0,110.6,1.0
2021-02-19 16:14:51,R1036,76.8,76.8,100,100,100,819,14.6,1022,0.0,1,0,7104,970,0,"$GPRMC,221450.00,A,4404.43412856,N,09143.58465286,W,0.09,285.06,190221,1.0,W,D,S*41$GPHDT,53.307,T*07",1,53.3,1,,,,,,,,,,,1,190221,221450.000,ACTIVE,44.07390214266667,-91.726410881,0.1,285.1,1.0
2021-02-19 16:14:52,R1036,76.8,76.8,100,100,100,819,14.6,1022,0.0,1,0,7105,970,0,"$GPRMC,221451.00,A,4404.43412796,N,09143.58465295,W,0.03,158.73,190221,1.0,W,D,S*4A$GPHDT,53.289,T*00",1,53.3,1,,,,,,,,,,,1,190221,221451.000,ACTIVE,44.07390213266667,-91.7264108825,0.0,158.7,1.0
2021-02-19 16:14:53,R1036,76.8,77.6,100,100,99,819,14.6,1022,0.0,1,0,7106,970,0,"$GPRMC,221452.00,A,4404.43412744,N,09143.58465188,W,0.02,265.43,190221,1.0,W,D,S*46$GPHDT,53.289,T*00",1,53.3,1,,,,,,,,,,,1,190221,221452.000,ACTIVE,44.073902124,-91.72641086466666,0.0,265.4,1.0
2021-02-19 16:14:54,R1036,76.8,76.8,100,100,100,819,14.6,1022,0.0,1,0,7107,970,0,"$GPRMC,221453.00,A,4404.43412799,N,09143.58465341,W,0.09,125.23,190221,1.0,W,D,S*4A$GPHDT,53.261,T*06",1,53.3,1,,,,,,,,,,,1,190221,221453.000,ACTIVE,44.07390213316667,-91.72641089016666,0.1,125.2,1.0
2021-02-19 16:14:55,R1036,76.8,76.8,100,100,100,819,14.6,1022,0.0,1,0,7108,970,0,"$GPRMC,221454.00,A,4404.43412753,N,09143.58465381,W,0.11,347.12,190221,1.0,W,D,S*4A$GPHDT,53.266,T*01",1,53.3,1,,,,,,,,,,,1,190221,221454.000,ACTIVE,44.0739021255,-91.72641089683333,0.1,347.1,1.0
2021-02-19 16:14:56,R1036,76.8,76.8,100,100,100,819,14.6,1022,0.0,1,0,7109,970,0,"$GPRMC,221455.00,A,4404.43412719,N,09143.58465452,W,0.07,126.74,190221,1.0,W,D,S*4E$GPHDT,53.285,T*0C",1,53.3,1,,,,,,,,,,,1,190221,221455.000,ACTIVE,44.073902119833335,-91.72641090866667,0.1,126.7,1.0
2021-02-19 16:14:57,R1036,76.8,77.6,100,100,99,819,14.6,1022,0.0,1,0,7110,970,0,"$GPRMC,221456.00,A,4404.43412919,N,09143.58465602,W,0.06,308.69,190221,1.0,W,D,S*47$GPHDT,53.290,T*08",1,53.3,1,,,,,,,,,,,1,190221,221456.000,ACTIVE,44.073902153166664,-91.72641093366667,0.1,308.7,1.0
2021-02-19 16:14:58,R1036,76.8,76.8,100,100,100,819,14.6,1022,0.0,1,0,7111,970,0,"$GPRMC,221457.00,A,4404.43412906,N,09143.58465649,W,0.07,262.09,190221,1.0,W,D,S*4D$GPHDT,53.272,T*04",1,53.3,1,,,,,,,,,,,1,190221,221457.000,ACTIVE,44.073902151,-91.7264109415,0.1,262.1,1.0
2021-02-19 16:14:59,R1036,76.8,76.8,100,100,100,819,14.6,1022,0.0,2,0,7112,970,0,"$GPRMC,221458.00,A,4404.43412961,N,09143.58465742,W,0.06,273.74,190221,1.0,W,D,S*42$GPHDT,53.296,T*0E",1,53.3,1,,,,,,,,,,,1,190221,221458.000,ACTIVE,44.07390216016667,-91.726410957,0.1,273.7,1.0
2021-02-19 16:15:00,R1036,76.8,76.8,100,100,100,819,14.6,1021,0.0,1,0,7113,970,0,"$GPRMC,221459.00,A,4404.43412935,N,09143.58465544,W,0.03,237.98,190221,1.0,W,D,S*41$GPHDT,53.285,T*0C",1,53.3,1,,,,,,,,,,,1,190221,221459.000,ACTIVE,44.07390215583333,-91.726410924,0.0,238.0,1.0
2021-02-19 16:15:01,R1036,76.8,77.6,100,100,99,819,14.6,1021,0.0,1,0,7114,970,0,"$GPRMC,221500.00,A,4404.43412899,N,09143.58465488,W,0.03,135.98,190221,1.0,W,D,S*4B$GPHDT,53.321,T*03",1,53.3,1,,,,,,,,,,,1,190221,221500.000,ACTIVE,44.07390214983333,-91.72641091466667,0.0,136.0,1.0
2021-02-19 16:15:02,R1036,76.8,76.8,100,100,100,819,14.6,1022,0.0,1,0,7115,970,0,"$GPRMC,221501.00,A,4404.43412879,N,09143.58465391,W,0.06,302.80,190221,1.0,W,D,S*41$GPHDT,53.267,T*00",1,53.3,1,,,,,,,,,,,1,190221,221501.000,ACTIVE,44.0739021465,-91.7264108985,0.1,302.8,1.0
2021-02-19 16:15:03,R1036,76.8,76.8,100,100,100,819,14.6,1021,0.0,1,0,7116,970,0,"$GPRMC,221502.00,A,4404.43412827,N,09143.58465303,W,0.08,321.39,190221,1.0,W,D,S*4F$GPHDT,53.287,T*0E",1,53.3,1,,,,,,,,,,,1,190221,221502.000,ACTIVE,44.073902137833336,-91.72641088383334,0.1,321.4,1.0
2021-02-19 16:15:04,R1036,76.8,77.6,100,100,99,819,14.6,1021,0.0,1,0,7117,970,0,"$GPRMC,221503.00,A,4404.43412754,N,09143.58465122,W,0.05,113.37,190221,1.0,W,D,S*44$GPHDT,53.320,T*02",1,53.3,1,,,,,,,,,,,1,190221,221503.000,ACTIVE,44.07390212566666,-91.72641085366666,0.1,113.4,1.0
2021-02-19 16:15:05,R1036,76.8,76.8,100,100,100,819,14.6,1022,0.0,1,0,7118,970,0,"$GPRMC,221504.00,A,4404.43412933,N,09143.58465216,W,0.05,4.53,190221,1.0,W,D,S*4D$GPHDT,53.336,T*05",1,53.3,1,,,,,,,,,,,1,190221,221504.000,ACTIVE,44.0739021555,-91.72641086933334,0.1,4.5,1.0
2021-02-19 16:15:06,R1036,76.8,76.8,100,100,100,819,14.6,1022,0.0,1,0,7119,970,0,"$GPRMC,221505.00,A,4404.43412990,N,09143.58465306,W,0.11,308.49,190221,1.0,W,D,S*44$GPHDT,53.347,T*03",1,53.3,1,,,,,,,,,,,1,190221,221505.000,ACTIVE,44.073902165,-91.72641088433333,0.1,308.5,1.0
2021-02-19 16:15:07,R1036,76.8,76.8,100,100,100,819,14.6,1022,0.0,1,0,7120,970,0,"$GPRMC,221506.00,A,4404.43412985,N,09143.58465351,W,0.03,329.88,190221,1.0,W,D,S*4C$GPHDT,53.378,T*0F",1,53.4,1,,,,,,,,,,,1,190221,221506.000,ACTIVE,44.07390216416667,-91.72641089183334,0.0,329.9,1.0
2021-02-19 16:15:08,R1036,76.8,77.6,100,100,99,819,14.6,1022,0.0,1,0,7121,970,0,"$GPRMC,221507.00,A,4404.43413057,N,09143.58465497,W,0.01,116.99,190221,1.0,W,D,S*4B$GPHDT,53.359,T*0C",1,53.4,1,,,,,,,,,,,1,190221,221507.000,ACTIVE,44.07390217616667,-91.72641091616667,0.0,117.0,1.0
2021-02-19 16:15:09,R1036,76.8,76.8,100,100,100,819,14.6,1022,0.0,1,0,7122,970,0,"$GPRMC,221508.00,A,4404.43413091,N,09143.58465648,W,0.08,320.34,190221,1.0,W,D,S*47$GPHDT,53.359,T*0C",1,53.4,1,,,,,,,,,,,1,190221,221508.000,ACTIVE,44.07390218183333,-91.72641094133333,0.1,320.3,1.0
2021-02-19 16:15:10,R1036,76.8,76.8,100,100,100,819,14.6,1022,0.0,1,0,7123,970,0,"$GPRMC,221509.00,A,4404.43413178,N,09143.58465877,W,0.09,346.34,190221,1.0,W,D,S*43$GPHDT,53.418,T*0E",1,53.4,1,,,,,,,,,,,1,190221,221509.000,ACTIVE,44.073902196333336,-91.7264109795,0.1,346.3,1.0
2021-02-19 16:15:11,R1036,76.8,76.8,100,100,100,819,14.6,1022,0.0,1,0,7124,970,0,"$GPRMC,221510.00,A,4404.43413189,N,09143.58465990,W,0.06,324.59,190221,1.0,W,D,S*4D$GPHDT,53.408,T*0F",1,53.4,1,,,,,,,,,,,1,190221,221510.000,ACTIVE,44.073902198166664,-91.72641099833334,0.1,324.6,1.0
2021-02-19 16:15:12,R1036,76.8,77.6,100,100,99,819,14.6,1022,0.0,1,0,7125,970,0,"$GPRMC,221511.00,A,4404.43413249,N,09143.58466035,W,0.02,4.25,190221,1.0,W,D,S*48$GPHDT,53.361,T*07",1,53.4,1,,,,,,,,,,,1,190221,221511.000,ACTIVE,44.073902208166665,-91.72641100583333,0.0,4.2,1.0
2021-02-19 16:15:13,R1036,76.8,76.8,100,100,100,819,14.6,1021,0.0,1,0,7126,970,0,"$GPRMC,221512.00,A,4404.43413207,N,09143.58465902,W,0.10,137.50,190221,1.0,W,D,S*4F$GPHDT,53.371,T*06",1,53.4,1,,,,,,,,,,,1,190221,221512.000,ACTIVE,44.07390220116667,-91.72641098366667,0.1,137.5,1.0
2021-02-19 16:15:14,R1036,76.8,76.8,100,100,100,819,14.6,1021,0.0,1,0,7127,970,0,"$GPRMC,221513.00,A,4404.43413191,N,09143.58465913,W,0.07,300.49,190221,1.0,W,D,S*4A$GPHDT,53.321,T*03",1,53.3,1,,,,,,,,,,,1,190221,221513.000,ACTIVE,44.0739021985,-91.7264109855,0.1,300.5,1.0
2021-02-19 16:15:15,R1036,76.8,77.6,100,100,99,819,14.6,1022,0.0,1,0,7128,970,0,"$GPRMC,221514.00,A,4404.43413130,N,09143.58465862,W,0.07,100.69,190221,1.0,W,D,S*41$GPHDT,53.271,T*07",1,53.3,1,,,,,,,,,,,1,190221,221514.000,ACTIVE,44.073902188333335,-91.726410977,0.1,100.7,1.0
2021-02-19 16:15:16,R1036,76.8,76.8,100,100,100,819,14.6,1022,0.0,1,0,7129,970,0,"$GPRMC,221515.00,A,4404.43413176,N,09143.58465922,W,0.05,34.84,190221,1.0,W,D,S*70$GPHDT,53.242,T*07",1,53.2,1,,,,,,,,,,,1,190221,221515.000,ACTIVE,44.073902196,-91.726410987,0.1,34.8,1.0
2021-02-19 16:15:17,R1036,76.8,76.8,100,100,100,819,14.6,1021,0.0,1,0,7130,970,0,"$GPRMC,221516.00,A,4404.43413126,N,09143.58465867,W,0.02,104.35,190221,1.0,W,D,S*49$GPHDT,53.098,T*02",1,53.1,1,,,,,,,,,,,1,190221,221516.000,ACTIVE,44.07390218766667,-91.72641097783334,0.0,104.3,1.0
2021-02-19 16:15:18,R1036,76.8,76.8,100,100,100,819,14.6,1021,0.0,1,0,7131,970,0,"$GPRMC,221517.00,A,4404.43413111,N,09143.58466001,W,0.07,86.07,190221,1.0,W,D,S*78$GPHDT,53.083,T*08",1,53.1,1,,,,,,,,,,,1,190221,221517.000,ACTIVE,44.073902185166666,-91.72641100016666,0.1,86.1,1.0
2021-02-19 16:15:19,R1036,76.8,77.6,100,100,99,818,14.6,1022,0.0,1,0,7132,970,0,"$GPRMC,221518.00,A,4404.43413129,N,09143.58466180,W,0.07,165.41,190221,1.0,W,D,S*4A$GPHDT,53.154,T*03",1,53.2,1,,,,,,,,,,,1,190221,221518.000,ACTIVE,44.07390218816667,-91.72641103,0.1,165.4,1.0
2021-02-19 16:15:20,R1036,76.8,76.8,100,100,100,819,14.6,1022,0.0,1,0,7133,970,0,"$GPRMC,221519.00,A,4404.43413145,N,09143.58466464,W,0.16,305.93,190221,1.0,W,D,S*45$GPHDT,53.102,T*00",1,53.1,1,,,,,,,,,,,1,190221,221519.000,ACTIVE,44.07390219083333,-91.72641107733334,0.2,305.9,1.0
2021-02-19 16:15:21,R1036,76.8,76.8,100,100,100,819,14.6,1021,0.0,1,0,7134,970,0,"$GPRMC,221520.00,A,4404.43413200,N,09143.58466656,W,0.12,309.97,190221,1.0,W,D,S*42$GPHDT,53.103,T*01",1,53.1,1,,,,,,,,,,,1,190221,221520.000,ACTIVE,44.0739022,-91.72641110933333,0.1,310.0,1.0
2021-02-19 16:15:22,R1036,76.8,77.6,100,100,99,819,14.6,1022,0.0,1,0,7135,970,0,"$GPRMC,221521.00,A,4404.43413174,N,09143.58466734,W,0.06,188.90,190221,1.0,W,D,S*4F$GPHDT,53.041,T*06",1,53.0,1,,,,,,,,,,,1,190221,221521.000,ACTIVE,44.07390219566667,-91.72641112233333,0.1,188.9,1.0
2021-02-19 16:15:23,R1036,76.8,76.8,100,100,100,819,14.6,1022,0.0,1,0,7136,970,0,"$GPRMC,221522.00,A,4404.43413080,N,09143.58466690,W,0.04,208.08,190221,1.0,W,D,S*41$GPHDT,53.000,T*03",1,53.0,1,,,,,,,,,,,1,190221,221522.000,ACTIVE,44.07390218,-91.726411115,0.0,208.1,1.0
2021-02-19 16:15:24,R1036,76.8,76.8,100,100,100,819,14.6,1022,0.0,1,0,7137,970,0,"$GPRMC,221523.00,A,4404.43412968,N,09143.58466589,W,0.02,255.68,190221,1.0,W,D,S*4D$GPHDT,52.951,T*0F",1,53.0,1,,,,,,,,,,,1,190221,221523.000,ACTIVE,44.073902161333336,-91.72641109816666,0.0,255.7,1.0
2021-02-19 16:15:25,R1036,76.8,76.8,100,100,100,819,14.6,1022,0.0,1,0,7138,970,0,"$GPRMC,221524.00,A,4404.43412895,N,09143.58466423,W,0.07,176.45,190221,1.0,W,D,S*40$GPHDT,52.995,T*07",1,53.0,1,,,,,,,,,,,1,190221,221524.000,ACTIVE,44.07390214916666,-91.7264110705,0.1,176.4,1.0
2021-02-19 16:15:26,R1036,76.8,77.6,100,100,99,819,14.6,1022,0.0,1,0,7139,970,0,"$GPRMC,221525.00,A,4404.43412746,N,09143.58466216,W,0.02,179.18,190221,1.0,W,D,S*42$GPHDT,52.953,T*0D",1,53.0,1,,,,,,,,,,,1,190221,221525.000,ACTIVE,44.07390212433334,-91.726411036,0.0,179.2,1.0
2021-02-19 16:15:27,R1036,76.8,76.8,100,100,100,819,14.6,1022,0.0,1,0,7140,970,0,"$GPRMC,221526.00,A,4404.43412741,N,09143.58466068,W,0.06,140.64,190221,1.0,W,D,S*48$GPHDT,53.047,T*00",1,53.0,1,,,,,,,,,,,1,190221,221526.000,ACTIVE,44.0739021235,-91.72641101133334,0.1,140.6,1.0
2021-02-19 16:15:28,R1036,76.8,76.8,100,100,100,819,14.6,1022,0.0,1,0,7141,970,0,"$GPGGA,221527.00,4404.43412721,N,09143.58466030,W,2,21,0.8,202.335,M,-32.675,M,7.0,0138*7C$GPHDT,53.000,T*03",1,53.0,1,1,221527.000,44.073902120166665,-91.726411005,DGPS,21,0.8,202.335,7.0,0138,,,,,,,,,
2021-02-19 16:15:29,R1036,76.8,77.6,100,100,99,819,14.6,1021,0.0,1,0,7142,970,0,"$GPGGA,221528.00,4404.43412765,N,09143.58466021,W,2,22,0.6,202.339,M,-32.675,M,7.0,0138*72$GPHDT,52.940,T*0F",1,52.9,1,1,221528.000,44.0739021275,-91.7264110035,DGPS,22,0.6,202.339,7.0,0138,,,,,,,,,
2021-02-19 16:15:30,R1036,76.8,76.8,100,100,100,819,14.6,1022,0.0,1,0,7143,970,0,"$GPGGA,221529.00,4404.43412731,N,09143.58466089,W,2,21,0.8,202.344,M,-32.675,M,4.0,0138*74$GPHDT,52.996,T*04",1,53.0,1,1,221529.000,44.073902121833335,-91.72641101483333,DGPS,21,0.8,202.344,4.0,0138,,,,,,,,,
2021-02-19 16:15:31,R1036,76.8,76.8,100,100,100,819,14.6,1022,0.0,1,0,7144,970,0,"$GPGGA,221530.00,4404.43412746,N,09143.58466125,W,2,21,0.8,202.345,M,-32.675,M,5.0,0138*7B$GPHDT,53.111,T*02",1,53.1,1,1,221530.000,44.07390212433334,-91.72641102083334,DGPS,21,0.8,202.345,5.0,0138,,,,,,,,,
2021-02-19 16:15:32,R1036,76.8,76.8,100,100,100,819,14.6,1022,0.0,1,0,7145,970,0,"$GPGGA,221531.00,4404.43412795,N,09143.58466215,W,2,22,0.6,202.345,M,-32.675,M,6.0,0138*7A$GPHDT,53.123,T*03",1,53.1,1,1,221531.000,44.0739021325,-91.72641103583334,DGPS,22,0.6,202.345,6.0,0138,,,,,,,,,
2021-02-19 16:15:33,R1036,76.8,77.6,100,100,99,819,14.6,1021,0.0,1,0,7146,970,0,"$GPGGA,221532.00,4404.43412683,N,09143.58466061,W,2,21,0.8,202.349,M,-32.675,M,7.0,0138*7E$GPHDT,53.127,T*07",1,53.1,1,1,221532.000,44.073902113833334,-91.72641101016667,DGPS,21,0.8,202.349,7.0,0138,,,,,,,,,
2021-02-19 16:15:34,R1036,76.8,76.8,100,100,100,819,14.6,1022,0.0,1,0,7147,970,0,"$GPGGA,221533.00,4404.43412569,N,09143.58465963,W,2,21,0.8,202.354,M,-32.675,M,7.0,0138*7C$GPHDT,53.144,T*02",1,53.1,1,1,221533.000,44.073902094833336,-91.72641099383333,DGPS,21,0.8,202.354,7.0,0138,,,,,,,,,
2021-02-19 16:15:35,R1036,76.8,76.8,100,100,100,819,14.6,1022,0.0,1,0,7148,970,0,"$GPGGA,221534.00,4404.43412509,N,09143.58465935,W,2,21,0.8,202.362,M,-32.675,M,7.0,0138*7B$GPHDT,53.177,T*02",1,53.2,1,1,221534.000,44.073902084833335,-91.72641098916667,DGPS,21,0.8,202.362,7.0,0138,,,,,,,,,
2021-02-19 16:15:36,R1036,76.8,76.8,100,100,100,819,14.6,1021,0.0,1,0,7149,970,0,"$GPGGA,221535.00,4404.43412392,N,09143.58465805,W,2,21,0.6,202.366,M,-32.675,M,4.0,0138*75$GPHDT,53.178,T*0D",1,53.2,1,1,221535.000,44.073902065333336,-91.7264109675,DGPS,21,0.6,202.366,4.0,0138,,,,,,,,,
2021-02-19 16:15:37,R1036,76.8,77.6,100,100,99,819,14.6,1022,0.0,1,0,7150,970,0,"$GPGGA,221536.00,4404.43412254,N,09143.58465721,W,2,21,0.8,202.373,M,-32.675,M,5.0,0138*7F$GPHDT,53.081,T*0A",1,53.1,1,1,221536.000,44.07390204233333,-91.7264109535,DGPS,21,0.8,202.373,5.0,0138,,,,,,,,,
2021-02-19 16:15:38,R1036,76.8,76.8,100,100,100,819,14.6,1022,0.0,1,0,7151,970,0,"$GPGGA,221537.00,4404.43412142,N,09143.58465622,W,2,21,0.8,202.377,M,-32.675,M,6.0,0138*7F$GPHDT,53.176,T*03",1,53.2,1,1,221537.000,44.07390202366667,-91.726410937,DGPS,21,0.8,202.377,6.0,0138,,,,,,,,,
2021-02-19 16:15:39,R1036,76.8,76.8,100,100,100,819,14.6,1022,0.0,1,0,7152,970,0,"$GPGGA,221538.00,4404.43412153,N,09143.58465590,W,2,21,0.8,202.377,M,-32.675,M,7.0,0138*7B$GPHDT,53.077,T*03",1,53.1,1,1,221538.000,44.0739020255,-91.72641093166666,DGPS,21,0.8,202.377,7.0,0138,,,,,,,,,
2021-02-19 16:15:40,R1036,76.8,77.6,100,100,99,819,14.6,1022,0.0,2,0,7153,970,0,"$GPGGA,221539.00,4404.43412066,N,09143.58465421,W,2,21,0.8,202.378,M,-32.675,M,7.0,0138*79$GPHDT,53.035,T*05",1,53.0,1,1,221539.000,44.073902011,-91.7264109035,DGPS,21,0.8,202.378,7.0,0138,,,,,,,,,
2021-02-19 16:15:41,R1036,76.8,76.8,100,100,100,819,14.6,1022,0.0,1,0,7154,970,0,"$GPGGA,221540.00,4404.43412052,N,09143.58465572,W,2,21,0.8,202.380,M,-32.675,M,7.0,0138*70$GPHDT,53.128,T*08",1,53.1,1,1,221540.000,44.073902008666664,-91.72641092866667,DGPS,21,0.8,202.38,7.0,0138,,,,,,,,,
2021-02-19 16:15:42,R1036,76.8,76.8,100,100,100,819,14.6,1022,0.0,1,0,7155,970,0,"$GPGGA,221541.00,4404.43412051,N,09143.58465676,W,2,21,0.8,202.383,M,-32.675,M,4.0,0138*75$GPHDT,53.052,T*04",1,53.1,1,1,221541.000,44.0739020085,-91.726410946,DGPS,21,0.8,202.383,4.0,0138,,,,,,,,,
2021-02-19 16:15:43,R1036,76.8,76.8,100,100,100,819,14.6,1022,0.0,1,0,7156,970,0,"$GPGGA,221542.00,4404.43411932,N,09143.58465548,W,2,21,0.8,202.384,M,-32.675,M,5.0,0138*71$GPHDT,53.128,T*08",1,53.1,1,1,221542.000,44.07390198866667,-91.72641092466667,DGPS,21,0.8,202.384,5.0,0138,,,,,,,,,
2021-02-19 16:15:44,R1036,76.8,77.6,100,100,99,819,14.6,1022,0.0,1,0,7157,970,0,"$GPGGA,221543.00,4404.43411935,N,09143.58465618,W,2,21,0.8,202.383,M,-32.675,M,6.0,0138*75$GPHDT,53.039,T*09",1,53.0,1,1,221543.000,44.073901989166664,-91.72641093633334,DGPS,21,0.8,202.383,6.0,0138,,,,,,,,,
2021-02-19 16:15:45,R1036,76.8,76.8,100,100,100,819,14.6,1021,0.0,1,0,7158,970,0,"$GPGGA,221544.00,4404.43411845,N,09143.58465653,W,2,21,0.8,202.385,M,-32.675,M,7.0,0138*7C$GPHDT,53.089,T*02",1,53.1,1,1,221544.000,44.07390197416667,-91.72641094216667,DGPS,21,0.8,202.385,7.0,0138,,,,,,,,,
2021-02-19 16:15:46,R1036,76.8,76.8,100,100,100,819,14.6,1022,0.0,1,0,7159,970,0,"$GPGGA,221545.00,4404.43411881,N,09143.58465891,W,2,21,0.8,202.381,M,-32.675,M,7.0,0138*71$GPHDT,53.071,T*05",1,53.1,1,1,221545.000,44.07390198016667,-91.72641098183334,DGPS,21,0.8,202.381,7.0,0138,,,,,,,,,
2021-02-19 16:15:47,R1036,76.8,76.8,100,100,100,819,14.6,1022,0.0,1,0,7160,970,0,"$GPGGA,221546.00,4404.43411835,N,09143.58465907,W,2,21,0.8,202.378,M,-32.675,M,7.0,0138*75$GPHDT,52.951,T*0F",1,53.0,1,1,221546.000,44.0739019725,-91.7264109845,DGPS,21,0.8,202.378,7.0,0138,,,,,,,,,
2021-02-19 16:15:48,R1036,76.8,77.6,100,100,99,819,14.6,1022,0.0,1,0,7161,970,0,"$GPGGA,221547.00,4404.43411894,N,09143.58466073,W,2,21,0.8,202.375,M,-32.675,M,4.0,0138*78$GPHDT,52.973,T*0F",1,53.0,1,1,221547.000,44.07390198233333,-91.72641101216666,DGPS,21,0.8,202.375,4.0,0138,,,,,,,,,
2021-02-19 16:15:49,R1036,76.8,76.8,100,100,100,818,14.6,1022,0.0,1,0,7162,970,0,"$GPGGA,221548.00,4404.43411936,N,09143.58466234,W,2,21,0.8,202.371,M,-32.675,M,5.0,0138*7A$GPHDT,52.809,T*03",1,52.8,1,1,221548.000,44.073901989333336,-91.726411039,DGPS,21,0.8,202.371,5.0,0138,,,,,,,,,
2021-02-19 16:15:50,R1036,76.8,76.8,100,100,100,819,14.6,1022,0.0,1,0,7163,970,0,"$GPGGA,221549.00,4404.43411849,N,09143.58466281,W,2,21,0.8,202.364,M,-32.675,M,6.0,0138*7B$GPHDT,52.796,T*0A",1,52.8,1,1,221549.000,44.07390197483333,-91.72641104683333,DGPS,21,0.8,202.364,6.0,0138,,,,,,,,,
2021-02-19 16:15:51,R1036,76.8,77.6,100,100,99,819,14.6,1022,0.0,1,0,7164,970,0,"$GPGGA,221550.00,4404.43411842,N,09143.58466393,W,2,21,0.8,202.364,M,-32.675,M,7.0,0138*7B$GPHDT,52.905,T*0E",1,52.9,1,1,221550.000,44.073901973666665,-91.7264110655,DGPS,21,0.8,202.364,7.0,0138,,,,,,,,,
2021-02-19 16:15:52,R1036,76.8,76.8,100,100,100,819,14.6,1022,0.0,1,0,7165,970,0,"$GPGGA,221551.00,4404.43411967,N,09143.58466651,W,2,21,0.8,202.360,M,-32.675,M,7.0,0138*73$GPHDT,52.887,T*05",1,52.9,1,1,221551.000,44.0739019945,-91.7264111085,DGPS,21,0.8,202.36,7.0,0138,,,,,,,,,
2021-02-19 16:15:53,R1036,76.8,76.8,100,100,100,819,14.6,1022,0.0,1,0,7166,970,0,"$GPGGA,221552.00,4404.43412081,N,09143.58466875,W,2,22,0.6,202.354,M,-32.675,M,7.0,0138*70$GPHDT,52.750,T*00",1,52.8,1,1,221552.000,44.0739020135,-91.72641114583334,DGPS,22,0.6,202.354,7.0,0138,,,,,,,,,
2021-02-19 16:15:54,R1036,76.8,76.8,100,100,100,819,14.6,1023,0.0,1,0,7167,970,0,"$GPGGA,221553.00,4404.43412177,N,09143.58467185,W,2,21,0.8,202.350,M,-32.675,M,4.0,0138*74$GPHDT,52.796,T*0A",1,52.8,1,1,221553.000,44.0739020295,-91.7264111975,DGPS,21,0.8,202.35,4.0,0138,,,,,,,,,
2021-02-19 16:15:55,R1036,76.8,77.6,100,100,99,819,14.6,1022,0.0,1,0,7168,970,0,"$GPGGA,221554.00,4404.43412219,N,09143.58467370,W,2,21,0.8,202.348,M,-32.675,M,5.0,0138*78$GPHDT,52.784,T*09",1,52.8,1,1,221554.000,44.0739020365,-91.72641122833333,DGPS,21,0.8,202.348,5.0,0138,,,,,,,,,
2021-02-19 16:15:56,R1036,76.8,76.8,100,100,100,819,14.6,1022,0.0,1,0,7169,970,0,"$GPGGA,221555.00,4404.43412315,N,09143.58467581,W,2,21,0.8,202.341,M,-32.675,M,6.0,0138*76$GPHDT,52.748,T*09",1,52.7,1,1,221555.000,44.0739020525,-91.7264112635,DGPS,21,0.8,202.341,6.0,0138,,,,,,,,,
2021-02-19 16:15:57,R1036,76.8,76.8,100,100,100,819,14.6,1022,0.0,1,0,7170,970,0,"$GPGGA,221556.00,4404.43412308,N,09143.58467729,W,2,21,0.8,202.345,M,-32.675,M,7.0,0138*7C$GPHDT,52.701,T*04",1,52.7,1,1,221556.000,44.073902051333334,-91.72641128816667,DGPS,21,0.8,202.345,7.0,0138,,,,,,,,,
2021-02-19 16:15:58,R1036,76.8,76.8,100,100,100,819,14.6,1021,0.0,1,0,7171,970,0,"$GPGGA,221557.00,4404.43412180,N,09143.58467765,W,2,21,0.8,202.349,M,-32.675,M,7.0,0138*7B$GPHDT,52.758,T*08",1,52.8,1,1,221557.000,44.07390203,-91.72641129416667,DGPS,21,0.8,202.349,7.0,0138,,,,,,,,,
2021-02-19 16:15:59,R1036,76.8,77.6,100,100,99,819,14.6,1022,0.0,1,0,7172,970,0,"$GPGGA,221558.00,4404.43412207,N,09143.58467833,W,2,21,0.8,202.350,M,-32.675,M,7.0,0138*7C$GPHDT,52.795,T*09",1,52.8,1,1,221558.000,44.0739020345,-91.7264113055,DGPS,21,0.8,202.35,7.0,0138,,,,,,,,,
2021-02-19 16:16:00,R1036,76.8,76.8,100,100,100,819,14.6,1022,0.0,1,0,7173,970,0,"$GPGGA,221559.00,4404.43412278,N,09143.58467869,W,2,21,0.8,202.355,M,-32.675,M,4.0,0138*7C$GPHDT,52.752,T*02",1,52.8,1,1,221559.000,44.07390204633333,-91.7264113115,DGPS,21,0.8,202.355,4.0,0138,,,,,,,,,
2021-02-19 16:16:01,R1036,76.8,76.8,100,100,100,819,14.6,1022,0.0,1,0,7174,970,0,"$GPGGA,221600.00,4404.43412244,N,09143.58467823,W,2,21,0.8,202.356,M,-32.675,M,5.0,0138*70$GPHDT,52.782,T*0F",1,52.8,1,1,221600.000,44.07390204066667,-91.72641130383333,DGPS,21,0.8,202.356,5.0,0138,,,,,,,,,
2021-02-19 16:16:02,R1036,76.8,77.6,100,100,99,819,14.6,1022,0.0,1,0,7175,970,0,"$GPGGA,221601.00,4404.43412224,N,09143.58467693,W,2,21,0.8,202.356,M,-32.675,M,6.0,0138*71$GPHDT,52.744,T*05",1,52.7,1,1,221601.000,44.07390203733333,-91.72641128216667,DGPS,21,0.8,202.356,6.0,0138,,,,,,,,,
2021-02-19 16:16:03,R1036,76.8,76.8,100,100,100,819,14.6,1022,0.0,1,0,7176,970,0,"$GPGGA,221602.00,4404.43412245,N,09143.58467662,W,2,21,0.8,202.359,M,-32.675,M,7.0,0138*75$GPHDT,52.747,T*06",1,52.7,1,1,221602.000,44.07390204083333,-91.726411277,DGPS,21,0.8,202.359,7.0,0138,,,,,,,,,
2021-02-19 16:16:04,R1036,76.8,76.8,100,100,100,819,14.6,1022,0.0,1,0,7177,970,0,"$GPGGA,221603.00,4404.43412156,N,09143.58467679,W,2,21,0.8,202.360,M,-32.675,M,7.0,0138*75$GPHDT,52.660,T*02",1,52.7,1,1,221603.000,44.073902026,-91.72641127983333,DGPS,21,0.8,202.36,7.0,0138,,,,,,,,,
2021-02-19 16:16:05,R1036,76.8,76.8,100,100,100,819,14.6,1022,0.0,1,0,7178,970,0,"$GPGGA,221604.00,4404.43412033,N,09143.58467480,W,2,21,0.8,202.362,M,-32.675,M,7.0,0138*76$GPHDT,52.762,T*01",1,52.8,1,1,221604.000,44.0739020055,-91.72641124666667,DGPS,21,0.8,202.362,7.0,0138,,,,,,,,,
2021-02-19 16:16:06,R1036,76.8,77.6,100,100,99,819,14.6,1022,0.0,1,0,7179,970,0,"$GPGGA,221605.00,4404.43412114,N,09143.58467567,W,2,21,0.8,202.362,M,-32.675,M,4.0,0138*78$GPHDT,52.732,T*04",1,52.7,1,1,221605.000,44.073902019,-91.72641126116666,DGPS,21,0.8,202.362,4.0,0138,,,,,,,,,
2021-02-19 16:16:07,R1036,76.8,76.8,100,100,100,819,14.6,1022,0.0,1,0,7180,970,0,"$GPGGA,221606.00,4404.43412151,N,09143.58467666,W,2,21,0.8,202.364,M,-32.675,M,5.0,0138*7F$GPHDT,52.710,T*04",1,52.7,1,1,221606.000,44.07390202516667,-91.72641127766667,DGPS,21,0.8,202.364,5.0,0138,,,,,,,,,
2021-02-19 16:16:08,R1036,76.8,76.8,100,100,100,819,14.6,1022,0.0,1,0,7181,970,0,"$GPGGA,221607.00,4404.43412130,N,09143.58467717,W,2,21,0.8,202.364,M,-32.675,M,6.0,0138*7D$GPHDT,52.747,T*06",1,52.7,1,1,221607.000,44.07390202166667,-91.72641128616667,DGPS,21,0.8,202.364,6.0,0138,,,,,,,,,
2021-02-19 16:16:09,R1036,76.8,76.8,100,100,100,819,14.6,1022,0.0,1,0,7182,970,0,"$GPGGA,221608.00,4404.43412150,N,09143.58467700,W,2,21,0.8,202.366,M,-32.675,M,7.0,0138*71$GPHDT,52.763,T*00",1,52.8,1,1,221608.000,44.073902025,-91.72641128333333,DGPS,21,0.8,202.366,7.0,0138,,,,,,,,,
2021-02-19 16:16:10,R1036,76.8,77.6,100,100,99,819,14.6,1022,0.0,1,0,7183,970,0,"$GPGGA,221609.00,4404.43412222,N,09143.58467734,W,2,21,0.8,202.363,M,-32.675,M,7.0,0138*74$GPHDT,52.790,T*0C",1,52.8,1,1,221609.000,44.073902037,-91.726411289,DGPS,21,0.8,202.363,7.0,0138,,,,,,,,,
2021-02-19 16:16:11,R1036,76.8,76.8,100,100,100,819,14.6,1022,0.0,1,0,7184,970,0,"$GPGGA,221610.00,4404.43412205,N,09143.58467858,W,2,22,0.6,202.364,M,-32.675,M,7.0,0138*76$GPHDT,52.813,T*08",1,52.8,1,1,221610.000,44.073902034166665,-91.72641130966667,DGPS,22,0.6,202.364,7.0,0138,,,,,,,,,
2021-02-19 16:16:12,R1036,76.8,76.8,100,100,100,819,14.6,1022,0.0,1,0,7185,970,0,"$GPGGA,221611.00,4404.43412237,N,09143.58468099,W,2,21,0.8,202.364,M,-32.675,M,4.0,0138*72$GPHDT,52.791,T*0D",1,52.8,1,1,221611.000,44.0739020395,-91.72641134983333,DGPS,21,0.8,202.364,4.0,0138,,,,,,,,,
2021-02-19 16:16:13,R1036,76.8,77.6,100,100,99,818,14.6,1021,0.0,1,0,7186,970,0,"$GPGGA,221612.00,4404.43412211,N,09143.58468137,W,2,21,0.8,202.359,M,-32.675,M,5.0,0138*7F$GPHDT,52.795,T*09",1,52.8,1,1,221612.000,44.07390203516667,-91.72641135616666,DGPS,21,0.8,202.359,5.0,0138,,,,,,,,,
2021-02-19 16:16:14,R1036,76.8,76.8,100,100,100,819,14.6,1021,0.0,1,0,7187,970,0,"$GPGGA,221613.00,4404.43412192,N,09143.58468211,W,2,21,0.8,202.363,M,-32.675,M,6.0,0138*7B$GPHDT,52.802,T*08",1,52.8,1,1,221613.000,44.073902032,-91.7264113685,DGPS,21,0.8,202.363,6.0,0138,,,,,,,,,
2021-02-19 16:16:15,R1036,76.8,76.8,100,100,100,819,14.6,1022,0.0,1,0,7188,970,0,"$GPGGA,221614.00,4404.43412061,N,09143.58468145,W,2,22,0.6,202.360,M,-32.675,M,7.0,0138*7C$GPHDT,52.896,T*05",1,52.9,1,1,221614.000,44.07390201016667,-91.7264113575,DGPS,22,0.6,202.36,7.0,0138,,,,,,,,,
2021-02-19 16:33:19,R1036,76.8,77.6,100,100,99,819,14.6,1021,0.0,1,0,8212,970,0,"$GPGGA,223318.00,4404.43404418,N,09143.58449152,W,2,21,0.8,202.978,M,-32.675,M,5.0,0138*73$GPHDT,53.065,T*00",1,53.1,1,1,223318.000,44.073900736333336,-91.726408192,DGPS,21,0.8,202.978,5.0,0138,,,,,,,,,
2021-02-19 16:33:20,R1036,76.8,76.8,100,100,100,819,14.6,1022,0.0,1,0,8213,970,0,"$GPGGA,223319.00,4404.43404874,N,09143.58449605,W,2,22,0.8,202.969,M,-32.675,M,6.0,0138*71$GPHDT,53.137,T*06",1,53.1,1,1,223319.000,44.073900812333335,-91.7264082675,DGPS,22,0.8,202.969,6.0,0138,,,,,,,,,
2021-02-19 16:33:21,R1036,76.8,76.8,100,100,100,819,14.6,1022,0.0,1,0,8214,970,0,"$GPGGA,223320.00,4404.43405037,N,09143.58450132,W,2,21,0.8,202.956,M,-32.675,M,7.0,0138*70$GPHDT,53.123,T*03",1,53.1,1,1,223320.000,44.0739008395,-91.72640835533333,DGPS,21,0.8,202.956,7.0,0138,,,,,,,,,
2021-02-19 16:33:22,R1036,76.8,77.6,100,100,99,819,14.6,1022,0.0,1,0,8215,970,0,"$GPGGA,223321.00,4404.43404895,N,09143.58449925,W,2,21,0.8,202.964,M,-32.675,M,7.0,0138*77$GPHDT,53.167,T*03",1,53.2,1,1,223321.000,44.07390081583333,-91.72640832083333,DGPS,21,0.8,202.964,7.0,0138,,,,,,,,,
2021-02-19 16:33:23,R1036,76.8,76.8,100,100,100,819,14.6,1022,0.0,1,0,8216,970,0,"$GPGGA,223322.00,4404.43404863,N,09143.58450005,W,2,21,0.8,202.961,M,-32.675,M,7.0,0138*7B$GPHDT,53.059,T*0F",1,53.1,1,1,223322.000,44.0739008105,-91.72640833416666,DGPS,21,0.8,202.961,7.0,0138,,,,,,,,,
2021-02-19 16:33:24,R1036,76.8,76.8,100,100,100,819,14.6,1022,0.0,1,0,8217,970,0,"$GPGGA,223323.00,4404.43405031,N,09143.58450158,W,2,22,0.8,202.954,M,-32.675,M,4.0,0138*7B$GPHDT,53.014,T*06",1,53.0,1,1,223323.000,44.0739008385,-91.72640835966666,DGPS,22,0.8,202.954,4.0,0138,,,,,,,,,
2021-02-19 16:33:25,R1036,76.8,76.8,100,100,100,819,14.6,1022,0.0,1,0,8218,970,0,"$GPGGA,223324.00,4404.43405181,N,09143.58450430,W,2,21,0.8,202.951,M,-32.675,M,5.0,0138*7A$GPHDT,53.083,T*08",1,53.1,1,1,223324.000,44.0739008635,-91.726408405,DGPS,21,0.8,202.951,5.0,0138,,,,,,,,,
2021-02-19 16:33:26,R1036,76.8,77.6,100,100,99,819,14.6,1022,0.0,1,0,8219,970,0,"$GPGGA,223325.00,4404.43405480,N,09143.58450882,W,2,21,0.8,202.946,M,-32.675,M,6.0,0138*7F$GPHDT,53.056,T*00",1,53.1,1,1,223325.000,44.07390091333333,-91.72640848033333,DGPS,21,0.8,202.946,6.0,0138,,,,,,,,,
2021-02-19 16:33:27,R1036,76.8,76.8,100,100,100,819,14.6,1022,0.0,1,0,8220,970,0,"$GPGGA,223326.00,4404.43405699,N,09143.58451398,W,2,22,0.8,202.940,M,-32.675,M,7.0,0138*73$GPHDT,53.060,T*05",1,53.1,1,1,223326.000,44.07390094983333,-91.72640856633333,DGPS,22,0.8,202.94,7.0,0138,,,,,,,,,
2021-02-19 16:33:28,R1036,76.8,76.8,100,100,100,819,14.6,1022,0.0,1,0,8221,970,0,"$GPGGA,223327.00,4404.43405838,N,09143.58452165,W,2,22,0.8,202.924,M,-32.675,M,7.0,0138*76$GPHDT,52.979,T*05",1,53.0,1,1,223327.000,44.073900973,-91.72640869416666,DGPS,22,0.8,202.924,7.0,0138,,,,,,,,,
2021-02-19 16:33:29,R1036,76.8,76.8,100,100,100,819,14.6,1022,0.0,1,0,8222,970,0,"$GPGGA,223328.00,4404.43406082,N,09143.58452823,W,2,22,0.8,202.913,M,-32.675,M,7.0,0138*7C$GPHDT,52.940,T*0F",1,52.9,1,1,223328.000,44.073901013666664,-91.72640880383334,DGPS,22,0.8,202.913,7.0,0138,,,,,,,,,
